{
  "type": "FeatureCollection",
  "features": [
    {
      "type": "Feature",
      "properties": {
        "name": "Puerto Prado",
        "info": "Located in the Marañón River basin, the Puerto Prado community is a community that works with chambira fiber and specializes in crafting jungle animals made from plant fiber and wire. They also create plates and baskets from plant fiber, dyed and woven with patterns typical of their Kukama Kukamiria ethnicity. "
        
      },
      "geometry": {
        "type": "Point",
        "coordinates": [
        -73.5379288417281, -4.471895949948584
        ]
      }
    },
    {
      "type": "Feature",
      "properties": {
        "name": "Amazonas",
        "info": "Located near Nauta, the Amazonas Community is dedicated to crafting Amazonian animals such as butterflies, among others, using wire and plant fibers."
      },
      "geometry": {
        "type": "Point",
        "coordinates": [
          -73.52608356595162,-4.459532900910048
        ]
      }
    },
    {
      "type": "Feature",
      "properties": {
        "name": "Manacamiri",
        "info": "Located on the Nanay River, the Manacamiri community is dedicated to weaving with chambira fibers and specializes in jewelry and topa wood carving."
      },
      "geometry": {
        "type": "Point",
        "coordinates": [
        -73.2842714896055, -3.7177747905842304
        ]
      }
    },
    {
      "type": "Feature",
      "properties": {
        "name": "Bora Community at Pebas Pucarquillo",
        "info": "Located in the Ampiyacu River basin, the artisans of the Pebas Pucarquillo community are dedicated to making bags and shicras from chambira fiber, reflecting the traditional knowledge of the Bora ethnic group."
      },
      "geometry": {
        "type": "Point",
        "coordinates": [
        -73.27641990034155, -3.689850315639078
        ]
      }
    },
    {
      "type": "Feature",
      "properties": {
        "name": "Centro Fuerte",
        "info": "Located on the Momón River, the Centro Fuerte community specializes in working with shiringa resin to produce rubber sheets using natural pigments."
      },
      "geometry": {
        "type": "Point",
        "coordinates": [
        -73.32755442124943, -3.625034422647295
        ]
      }
    },
    {
      "type": "Feature",
      "properties": {
        "name": "Santo Tomas",
        "info": "Located in the southern part of the San Juan Bautista district,  these highly renowned artisans work, even at the regional level, with plant fibers, black ceramics, and wood carvings."
      },
      "geometry": {
        "type": "Point",
        "coordinates": [
          -73.33964752523359, -3.801889531694388
        ]
      }
    },
    {
      "type": "Feature",
      "properties": {
        "name": "Penal San Jacinto de Iquitos",
        "info": "Previously known as Guayabamba, this penitentiary is located in the city of Iquitos. It offers vocational workshops in areas such as shoemaking, baking, carpentry, metalwork, and other manual trades, aiming to support the social and professional reintegration of a population that is often marginalized."
      },
      "geometry": {
        "type": "Point",
        "coordinates": [
          -73.2727362082975, -3.7720073507827183
        ]
      }
    }
  ]
}
